[
    {
        "name": "Clothes Store",
        "description": "Ecomerse de ropa",
        "image": "./data/clientData/clothesStore/logo.jpeg",
        "icon": "./data/clientData/clothesStore/icon.png",
        "heroBackgroundImage": "./data/clientData/clothesStore/hero_background.webp",
        "whatsapp": "123456789",
        "address": "Calle 1 # 2 - 3",
        "phone": "123456789",
        "email": "info@clothesstore.com",
        "horarios": [
            {
                "day": "Monday",
                "hours": "9:00 - 18:00"
            },
            {
                "day": "Tuesday",
                "hours": "9:00 - 18:00"
            },
            {
                "day": "Wednesday",
                "hours": "9:00 - 18:00"
            },
            {
                "day": "Thursday",
                "hours": "9:00 - 18:00"
            },
            {
                "day": "Friday",
                "hours": "9:00 - 18:00"
            },
            {
                "day": "Saturday",
                "hours": "9:00 - 18:00"
            },
            {
                "day": "Sunday",
                "hours": "9:00 - 18:00"
            }
        ],
        "envios": [
            { "day": "Monday", "hours": "10:00 - 17:00" },
            { "day": "Tuesday", "hours": "10:00 - 17:00" },
            { "day": "Wednesday", "hours": "10:00 - 17:00" },
            { "day": "Thursday", "hours": "10:00 - 17:00" },
            { "day": "Friday", "hours": "10:00 - 17:00" }
        ],
        "socialNetworks": [
            {
                "name": "Facebook",
                "link": "https://www.facebook.com"
            },
            {
                "name": "Instagram",
                "link": "https://www.instagram.com"
            }
        ],
        "store": "./clientData/clothesStore/products.json"
    }
]