[
    {
        "name": "Heladeria Ice Cream",
        "description": "Menu de heladeria",
        "image": "https://picsum.photos/200",
        "icon": "https://picsum.photos/50",
        "heroBackgroundImage": "https://picsum.photos/800/400",
        "whatsapp": "+1111111111",
        "address": "Calle Falsa 123",
        "phone": "+1234567890",
        "email": "info@icecream.com",
        "horarios": [
            {
                "day": "Lunes",
                "hours": "9:00 - 18:00"
            },
            {
                "day": "Martes",
                "hours": "9:00 - 18:00"
            },
            {
                "day": "Miércoles",
                "hours": "9:00 - 18:00"
            },
            {
                "day": "Jueves",
                "hours": "9:00 - 18:00"
            },
            {
                "day": "Viernes",
                "hours": "9:00 - 18:00"
            },
            {
                "day": "Sábado",
                "hours": "9:00 - 18:00"
            },
            {
                "day": "Domingo",
                "hours": "9:00 - 18:00"
            }
        ],
        "envios": [
            { "day": "Lunes", "hours": "10:00 - 17:00" },
            { "day": "Martes", "hours": "10:00 - 17:00" },
            { "day": "Miércoles", "hours": "10:00 - 17:00" },
            { "day": "Jueves", "hours": "10:00 - 17:00" },
            { "day": "Viernes", "hours": "10:00 - 17:00" }
        ],
        "socialNetworks": [
            {
                "name": "Facebook",
                "link": "https://www.facebook.com"
            },
            {
                "name": "Instagram",
                "link": "https://www.instagram.com"
            }
        ],
        "store": "./clientData/iceCreamMenu/products.json"
    }
]